Time,Longitude,Latitude,Altitude,Roll,Pitch,Heading
56.1667,-157.9431559,21.32524702,23.9246358,-0.05005909227,-0.2315047675,89.86906342
57.1667,-157.9431559,21.32524702,23.92463583,-0.05005889671,-0.2315047361,89.86906342
58.1667,-157.9431559,21.32524702,23.92463583,-0.05005851107,-0.2315046555,89.86906342
59.1667,-157.9431559,21.32524702,23.92463583,-0.05005834579,-0.2315045487,89.86906342
60.1667,-157.9431559,21.32524702,23.92463583,-0.0500580078,-0.2315044342,89.86906342
61.1667,-157.9431559,21.32524702,23.92463582,-0.05005761609,-0.2315043015,89.86906342
62.1833,-157.9431559,21.32524702,23.92463582,-0.05005759223,-0.2315043081,89.86906342
63.1917,-157.9431559,21.32524702,23.92463582,-0.05005758528,-0.2315042914,89.86906342
64.1583,-157.9431559,21.32524702,23.92463582,-0.05005759231,-0.2315042759,89.86906342
65.1583,-157.9431559,21.32524702,23.92463582,-0.05005758979,-0.2315042887,89.86906342
66.1583,-157.9431559,21.32524702,23.92463582,-0.0500576001,-0.2315042897,89.86906342
67.1583,-157.9431559,21.32524702,23.92463582,-0.05005759489,-0.2315042849,89.86906342
68.1583,-157.9431559,21.32524702,23.92463583,-0.0500575983,-0.2315042706,89.86906342
69.1583,-157.9431559,21.32524702,23.92463582,-0.05005758799,-0.2315042624,89.86906341
70.1583,-157.9431559,21.32524702,23.92463581,-0.05005759409,-0.2315042617,89.86906341
71.1583,-157.9431559,21.32524702,23.92463581,-0.05005759705,-0.2315042784,89.86906341
72.1667,-157.9431559,21.32524702,23.92463581,-0.05005759664,-0.2315042913,89.86906341
73.15,-157.943156,21.32524702,23.80747231,-0.04907442876,-0.1940695443,89.86902417
74.15,-157.9431561,21.32524702,23.83145762,-0.04927135587,0.1728805293,89.86867987
75.1667,-157.943156,21.32524702,23.83928412,-0.04923004206,0.07227529066,89.86877554
76.15,-157.943156,21.32524702,23.8465186,-0.04917746397,-0.006916221547,89.8688502
77.15,-157.943156,21.32524702,23.84719774,-0.0491496768,-0.01500067818,89.86885781
78.15,-157.943156,21.32524702,23.84586143,-0.04914692552,-0.0005416414394,89.86884421
79.15,-157.943156,21.32524702,23.8451281,-0.04915419907,0.00765479482,89.8688365
80.1583,-157.943156,21.32524702,23.84513539,-0.04915761523,0.007715138569,89.86883645
81.1583,-157.943156,21.32524702,23.84531382,-0.04915619686,0.005823913303,89.86883823
82.1583,-157.943156,21.32524702,23.8453985,-0.04915679786,0.004927344414,89.86883907
83.1583,-157.943156,21.32524702,23.84564669,-0.04915444268,-0.00354975421,89.86884704
84.1583,-157.943156,21.32524702,23.84552561,-0.04915377356,-0.02130837733,89.86886374
85.1583,-157.9431559,21.32524702,23.8524371,-0.04912180147,-0.2941406759,89.86912018
86.1583,-157.9431554,21.32524702,23.87797435,-0.0490925233,-1.42077687,89.87019176
87.1583,-157.9431523,21.32524703,23.8871595,-0.04899811083,-1.274088566,89.87021181
88.1667,-157.94315,21.32524704,23.8759168,-0.04904810896,-1.236387604,89.87031812
89.1667,-157.9431488,21.32524704,23.87402524,-0.04906352046,-1.227004988,89.87041844
90.1667,-157.9431474,21.32524704,23.87298933,-0.04936020147,-1.222866634,89.87052087
91.1667,-157.9431279,21.32524708,23.87553549,-0.05552450647,-1.218653712,89.8714386
92.1667,-157.9430779,21.32524719,23.88685298,-0.06162702904,-1.217126707,89.87399131
93.15,-157.9429973,21.32524737,23.90536193,-0.06956543404,-1.216740587,89.88285242
94.15,-157.9428815,21.32524761,23.93140224,-0.07952358023,-1.217677188,89.90653199
95.15,-157.9427296,21.32524787,23.9652099,-0.09428156654,-1.2167358,89.9583046
96.1583,-157.9425377,21.32524802,24.00758676,-0.1128821353,-1.217506618,90.05685818
97.1583,-157.9423068,21.32524781,24.05734535,-0.1371714108,-1.218164285,90.22538652
98.1583,-157.9420331,21.32524674,24.11397511,-0.1703973548,-1.219029275,90.49200026
99.1583,-157.9417143,21.32524405,24.17717648,-0.21737952,-1.217908853,90.88626611
100.158,-157.941348,21.32523855,24.24832534,-0.2765974627,-1.215926004,91.43416205
101.175,-157.9409243,21.32522834,24.32489027,-0.3502036581,-1.217062682,92.17469975
102.158,-157.9404628,21.32521179,24.40060174,-0.4376482605,-1.214823895,93.08999095
103.158,-157.9399388,21.3251855,24.4758042,-0.4773433685,-1.21623431,94.05381498
104.158,-157.9393574,21.32514776,24.54666279,-0.4823539188,-1.166636254,94.91901671
105.167,-157.9387132,21.32509727,24.53372224,-0.4448780361,0.04483319417,95.47623827
106.167,-157.9380326,21.32503837,24.60355524,-0.4095494119,0.07315522509,95.82075457
107.167,-157.9373137,21.32497185,24.6570959,-0.3354940836,0.1548257257,96.07587855
108.167,-157.9365528,21.32489986,24.70216416,0.06854657976,0.5835106222,95.15758681
109.167,-157.9357352,21.32482382,25.57943584,-0.282574549,6.305547178,96.59226335
110.15,-157.9348649,21.32473976,42.79860341,-2.828549395,34.96569351,95.55779132
111.15,-157.9340482,21.3246692,119.7243291,-2.438153719,49.86709837,94.71583571
112.15,-157.93334,21.32461594,249.3656465,-0.711375248,44.64361229,95.35371672
113.158,-157.9326166,21.32456284,411.7633297,-0.09261988851,35.85691188,95.66699631
114.158,-157.9318085,21.32450146,582.3569287,0.1896765683,32.7891524,95.79914858
115.158,-157.9309016,21.32443019,760.403342,0.3726400496,35.01908755,95.95675093
116.158,-157.9299223,21.32435091,959.3551795,0.5146113017,37.02436941,96.12881909
117.175,-157.92887,21.32426323,1190.162798,0.6272366057,38.06546752,96.29839296
118.175,-157.9277776,21.32416961,1443.443927,0.7033553102,36.30320385,96.42165874
119.158,-157.9266195,21.32406773,1704.859906,0.7544867076,31.75320339,96.45376682
120.158,-157.9253194,21.32395084,1965.179655,0.8476340733,28.98180335,96.47666024
121.15,-157.9239068,21.3238214,2217.211133,0.9372857306,26.57569304,96.49700647
122.167,-157.922362,21.32367739,2467.263399,1.005264286,25.11179477,96.53248811
123.15,-157.920702,21.32352022,2715.151411,1.043330744,23.21386778,96.55811187
124.167,-157.9188962,21.32334691,2962.170685,1.067308801,21.69874295,96.59041339
125.15,-157.9170429,21.3231667,3199.489917,1.091698648,21.84072543,96.65226024
126.15,-157.9150353,21.32296824,3455.727395,6.595576484,22.02486846,96.89782589
127.15,-157.913015,21.32275439,3717.3492,27.36289751,22.02109639,98.14426716
128.15,-157.9108908,21.32247912,3996.402802,48.67421523,22.80666779,101.5695767
129.175,-157.9086686,21.32206783,4300.050294,53.60166347,23.12196871,105.6939846
130.158,-157.9065165,21.32152812,4610.788089,35.00818189,24.80238595,108.6194097
131.175,-157.9043315,21.32087151,4961.276334,7.044523875,29.69007452,110.0762251
132.158,-157.9021736,21.32019001,5393.866364,-20.52752144,36.15301401,107.2642823
133.158,-157.9001316,21.31965049,5903.10805,-33.79820707,41.3285864,101.115658
134.158,-157.8981832,21.31930985,6484.310803,-25.14706445,47.30231558,96.13101767
135.158,-157.8964032,21.31911764,7137.698572,9.312144268,55.05374347,97.72794337
136.158,-157.8948599,21.31890511,7856.487249,50.03194445,55.29684433,102.1633319
137.15,-157.8933816,21.31862379,8581.899586,85.88791423,53.97997713,104.0026903
138.15,-157.8918587,21.31829016,9306.769623,-7.347756028,53.92545243,103.9151341
139.15,-157.8903081,21.31795023,10027.96379,-174.7102787,52.1084046,103.9810994
140.15,-157.8886988,21.31760466,10737.25612,56.23093475,51.3997893,104.1218217
141.15,-157.8870533,21.31723327,11438.8941,-62.28636391,50.53635597,102.9223321
142.15,-157.8853554,21.3168955,12131.93162,-173.3813408,46.59648562,101.3277566
143.15,-157.8835321,21.31651826,12786.90361,93.04708024,43.57597977,110.825242
144.15,-157.8817288,21.31592514,13425.54868,20.89771238,49.34924153,115.2008451
145.142,-157.8801124,21.31531163,14094.02865,-54.94419791,53.16272504,105.9041271
146.142,-157.8785268,21.3149076,14782.95398,-115.1898203,48.88141347,95.07209438
147.142,-157.8768099,21.31472144,15427.884,-167.8550487,40.20654085,93.48417094
148.142,-157.8748937,21.31457638,15985.34471,139.4389861,33.34417271,100.5764404
149.142,-157.8728654,21.31424952,16463.25653,83.7952958,33.49668094,110.2114615
150.158,-157.8709172,21.31367061,16927.53603,33.1336353,41.16497559,116.3567588
151.142,-157.8691957,21.31294148,17437.21467,99.32935526,39.80590699,128.3743314
152.142,-157.8675849,21.31198408,17908.81216,-141.3700501,24.98898031,118.5352202
153.167,-157.8657762,21.31109996,18295.57645,-45.28101969,35.11703689,106.157093
154.15,-157.864003,21.31045841,18718.23183,29.76206296,44.66535439,117.7957461
155.15,-157.8624732,21.30975864,19197.49367,89.52677937,41.49294855,133.9844433
156.15,-157.8611571,21.30880799,19657.98654,141.2910006,28.99389874,140.4571088
157.15,-157.8598929,21.30761866,20020.40259,-169.3700145,15.63933369,134.5360541
158.15,-157.8584962,21.30638287,20255.14141,-116.7100088,10.66970498,120.9426816
159.15,-157.8568895,21.30533962,20413.70983,-62.06329748,18.4060986,110.0097925
160.15,-157.855181,21.30455943,20594.06998,-23.55186433,29.80233043,109.5533212
161.142,-157.8535438,21.30394522,20841.58618,-1.381656086,37.27880157,112.5315448
162.142,-157.8520146,21.30338211,21151.86897,16.68487276,32.99431701,115.2331631
163.142,-157.8505351,21.30281428,21459.83542,27.60471611,24.57167041,112.9376739
164.142,-157.8489358,21.30221979,21732.69119,3.347811469,17.81192188,111.5962036
165.142,-157.8472914,21.30160826,21939.09732,-33.27165976,11.60534301,115.8650207
166.142,-157.8456167,21.30091126,22080.39482,-45.11521372,6.288235108,120.8105307
167.142,-157.8439473,21.30009992,22155.73157,-45.04497478,0.4233111944,124.9478005
168.142,-157.8423029,21.29917527,22163.44135,-42.20224472,-3.967606449,126.3704372
169.15,-157.8406578,21.29816126,22112.09984,-34.04500967,-7.120240005,126.1417644
170.15,-157.8390148,21.29710942,22014.34816,-15.9369975,-10.49369801,125.9231211
171.15,-157.8373469,21.29602845,21876.1292,9.703156365,-10.99957775,125.4596774
172.167,-157.8356454,21.29491584,21714.02604,11.44761554,-11.97230155,125.8781053
173.15,-157.8339382,21.29378688,21537.06153,-3.011812229,-12.9696232,125.7780983
174.15,-157.8321293,21.29259339,21336.3969,-18.68364319,-14.10864867,125.258176
175.15,-157.8302999,21.29140335,21120.30002,-19.07576492,-14.62214202,124.6809963
176.15,-157.828411,21.2902021,20892.91686,-22.36790208,-14.09845314,123.6034607
177.142,-157.8264826,21.28902006,20666.50869,-31.62376588,-13.08882635,121.6133223
178.142,-157.8244027,21.28784282,20445.54348,-37.23821519,-9.630962637,117.125114
179.142,-157.822203,21.28676351,20263.88229,-21.87205238,-7.477445173,115.4886569
180.142,-157.8199085,21.28572489,20111.9045,-1.805213068,-6.930685524,115.9641974
181.142,-157.8175593,21.28466846,19974.67885,9.284684246,-6.871944215,116.5299717
182.142,-157.8151707,21.28357832,19837.28113,14.56343716,-8.178823097,116.8208651
183.142,-157.8127483,21.28245793,19685.71538,-2.754570192,-9.041655466,116.80236
184.142,-157.8102876,21.2813201,19519.17026,-13.85007326,-9.907452638,116.6272017
185.142,-157.8077845,21.28017386,19337.93011,-14.19804128,-10.19464793,116.3285825
186.15,-157.8052104,21.27901377,19149.88753,-12.80113166,-9.89612856,115.8619175
187.15,-157.8026028,21.27786164,18966.74115,-11.89340206,-9.553597541,115.4157748
188.15,-157.7999424,21.27670845,18787.81663,-11.36554785,-9.230421883,114.9994734
189.15,-157.7972311,21.27555487,18613.16369,-11.05371585,-8.922464062,114.6038799
190.15,-157.7944712,21.27440152,18442.43148,-10.85540229,-8.653013504,114.2282912
191.15,-157.7916643,21.27324867,18274.83319,-10.71568523,-8.435469141,113.872206
192.15,-157.7888119,21.27209657,18109.57448,-10.60540333,-8.220193452,113.5244725
193.15,-157.7859157,21.27094592,17946.62393,-10.51021729,-8.002687583,113.1833627
194.142,-157.7830021,21.26980702,17787.5109,-10.42254283,-7.787416733,112.8514423
195.142,-157.7800235,21.2686615,17629.80982,-10.33824256,-7.564486875,112.5217806
196.142,-157.7770059,21.26751969,17475.19,-10.2561512,-7.328457869,112.1956047
197.142,-157.773951,21.26638119,17324.08087,-3.227033591,-7.055886957,112.0480846
198.142,-157.770866,21.26523558,17173.699,7.045266808,-7.434385571,112.1336085
199.142,-157.7678128,21.26409697,17010.49932,16.01116739,-9.185397498,112.0567912
200.142,-157.7646942,21.26293715,16806.70212,9.987126521,-11.15140708,112.007271
201.142,-157.7615151,21.26176113,16551.91927,9.799396203,-14.43392453,111.7295787
202.167,-157.7583736,21.26062065,16221.3686,3.393374964,-18.84274189,111.3879753
203.15,-157.7553007,21.25951362,15799.64512,-9.401154516,-23.61327261,111.7148971
204.15,-157.7523411,21.2584209,15299.32194,-29.67420597,-26.00930755,112.2930407
205.15,-157.7492812,21.25729151,14742.39062,-48.09125481,-24.46778006,109.2122833
206.15,-157.7460732,21.25641799,14241.95903,-62.23541551,-21.09702931,101.461276
207.15,-157.7426659,21.25597164,13797.96687,-61.61931319,-18.45897137,92.20449575
208.15,-157.7391302,21.25602254,13426.33847,-39.93003049,-12.78788533,84.33105722
209.15,-157.7355218,21.25651049,13191.41215,-41.02333493,-5.554362053,77.45546628
210.142,-157.7319852,21.25742484,13109.97224,-41.23542226,1.239551024,69.74864422
211.142,-157.7285808,21.25875415,13181.96137,-31.92702162,8.077404139,63.94066393
212.142,-157.7253742,21.26033025,13396.6233,-22.87669588,14.24628692,60.20871176
213.142,-157.7223503,21.2620095,13732.638,-4.156480009,18.74497953,58.99399782
214.142,-157.7194214,21.26367332,14137.06777,5.334534097,20.88649119,59.30189363
215.142,-157.7165456,21.26529078,14580.06112,-1.645929438,22.73278823,59.33728384
216.142,-157.7137247,21.26687959,15050.36684,-1.756872678,23.32394338,59.28413416
217.142,-157.710932,21.2684556,15521.89194,-1.80781099,23.15782862,59.24968645
218.15,-157.7081433,21.2700316,15987.13238,-1.834012432,22.67884592,59.22314932
219.15,-157.7054013,21.27158186,16420.28017,-1.821105824,19.78056471,59.27815486
220.15,-157.7026319,21.27314247,16772.4674,-1.777290822,13.32599573,59.44598246
221.15,-157.6998168,21.27471989,17006.07336,-1.763479476,10.63508881,59.48863075
222.15,-157.6970094,21.27629223,17200.99175,-1.752556855,9.30989787,59.48778494
223.15,-157.6942137,21.27785812,17366.51366,-1.735444226,7.053810875,59.51511252
224.15,-157.6914187,21.27942066,17470.63175,-1.713014997,1.394549492,59.6440458
225.15,-157.6886234,21.28097557,17458.95971,-1.703243389,-4.471314407,59.777766
226.142,-157.6858665,21.28250305,17349.79129,-1.698632593,-7.912646182,59.84024171
227.142,-157.6831022,21.28403179,17180.13176,-5.243464946,-10.35696893,59.87226514
228.158,-157.6803499,21.28554919,16965.65463,-5.751560649,-12.39265051,60.1116968
229.142,-157.6776041,21.2870545,16715.96737,15.84366648,-13.73902861,60.312491
230.142,-157.6748589,21.28854858,16440.6863,14.71060585,-14.9196853,60.30929274
231.142,-157.672114,21.29003391,16142.20935,-7.848456347,-16.0342489,60.41597464
232.142,-157.6693729,21.29151781,15822.40433,-9.783900283,-17.04862222,60.47990709
233.142,-157.6666346,21.29299966,15482.43778,-5.131350448,-18.01988701,60.51411432
234.15,-157.6638754,21.29449087,15120.0353,-4.384462009,-18.96898847,60.47973764
235.15,-157.6611422,21.29596844,14741.59685,-4.048762095,-19.88297055,60.45320529
236.15,-157.6584119,21.29744588,14345.62136,-3.847294542,-20.25124595,60.38786729
237.15,-157.6556739,21.29893219,13946.1737,-3.702263681,-19.71478419,60.2607784
238.15,-157.652907,21.30044502,13573.26111,-3.553139178,-16.37252028,59.95150273
239.15,-157.6500926,21.30200216,13266.81528,-3.439198436,-12.66024297,59.63353369
240.15,-157.6472496,21.30359147,13019.29703,-3.365138565,-10.61412454,59.42746951
241.15,-157.6443973,21.30519755,12807.01372,-3.309621124,-9.565178484,59.28449116
242.15,-157.641544,21.30681359,12618.69193,-3.259277765,-8.423368372,59.13819461
243.142,-157.6387165,21.30842399,12454.61825,-3.214222589,-7.320630663,58.99683761
244.142,-157.6358703,21.31005346,12309.07224,-3.152488974,-6.669642728,58.88234687
245.142,-157.6330304,21.31168244,12175.38689,3.247481818,-6.166475793,58.9820423
246.142,-157.6301931,21.31330238,12051.90988,3.037175216,-5.696537996,59.10767606
247.142,-157.6273591,21.3149134,11937.87379,0.5087137184,-5.251109288,59.16642729
248.158,-157.6245314,21.31651857,11832.78938,0.5389497993,-4.824378085,59.19727211
249.142,-157.6217104,21.31811801,11736.26545,0.5692530293,-4.411346276,59.22621751
250.142,-157.6188967,21.31971154,11648.01209,0.5853863474,-4.007889999,59.25490233
251.15,-157.6160671,21.32131222,11567.17613,0.5916984435,-3.607906227,59.2836497
252.15,-157.6133153,21.32286715,11496.06371,0.5920105293,-3.222555561,59.31158535
253.167,-157.6104784,21.3244684,11430.41646,0.5898488597,-2.827663195,59.34060857
254.15,-157.6076962,21.32603696,11373.54285,0.5870733173,-2.441766121,59.36911671
255.15,-157.6049226,21.32759902,11324.2061,0.5840437154,-2.057665812,59.39755519
256.167,-157.6021575,21.32915452,11282.3218,0.5809503934,-1.674828622,59.42591589
257.15,-157.5994471,21.3306776,11248.31992,0.5779448206,-1.298098573,59.45373834
258.15,-157.596654,21.33224545,11220.28283,0.5691058258,-0.8411482408,59.48305577
259.142,-157.593937,21.33376903,11197.7644,0.5290159318,-0.6221864574,59.50827149
260.142,-157.591204,21.33530006,11179.54853,0.4897867878,-0.3889475533,59.53248715
261.142,-157.5884781,21.33682568,11165.63275,0.4514644407,-0.1622313462,59.55534274
262.142,-157.5857596,21.33834595,11152.99524,0.4200171451,-0.4916380222,59.57291483
263.142,-157.5830483,21.33986124,11134.89649,0.3923683858,-0.8167363282,59.58994947
264.142,-157.5803435,21.34137196,11110.54765,0.3647795032,-1.166325142,59.60623286
265.142,-157.5776446,21.3428785,11079.60363,0.3371283706,-1.529593798,59.62184491
266.142,-157.5749509,21.34438128,11041.86166,0.3093977343,-1.90170696,59.63681913
267.15,-157.5722395,21.34589314,10996.79602,0.2813788863,-2.282801026,59.65130334
268.15,-157.5695546,21.34738944,10945.07415,0.2536119462,-2.664732392,59.66506785
269.15,-157.5668733,21.34888303,10886.30234,0.2259180627,-3.049587668,59.6782398
270.15,-157.564195,21.35037422,10820.44345,0.1983409058,-3.436830478,59.69082271
271.15,-157.5615193,21.3518633,10747.46481,0.1709219478,-3.826264082,59.70281977
272.15,-157.5588458,21.35335055,10667.33273,0.1437008143,-4.217897205,59.71423487
273.15,-157.5561739,21.35483623,10580.00912,0.1167153062,-4.611869583,59.72507312
274.15,-157.5535034,21.35632059,10485.44945,0.09000212929,-5.008398734,59.73534077
275.142,-157.5508562,21.35779148,10384.48068,0.06381400699,-5.404395046,59.74496831
276.142,-157.5481874,21.35927384,10275.34631,0.03774350312,-5.806785788,59.75412636
277.142,-157.545519,21.36075551,10158.79744,0.01203856866,-6.211600041,59.76274331
278.142,-157.5428507,21.36223665,10034.79255,-0.01333445285,-6.615653341,59.77083025
279.142,-157.5401823,21.36371745,9903.328765,-0.03828836567,-7.018484852,59.77835855
280.158,-157.5375135,21.36519807,9764.411901,-0.06275155383,-7.419614223,59.78533496
281.142,-157.5348441,21.36667864,9618.054917,-0.08689052073,-7.81857809,59.79179544
282.142,-157.5321739,21.3681593,9464.278201,-0.1107027095,-8.21489903,59.79775049
283.15,-157.5294806,21.3696525,9301.736196,-0.1343552329,-8.611330119,59.80325061
284.15,-157.5268084,21.37113366,9133.153132,-0.1574382376,-9.000764338,59.80821106
285.167,-157.5241351,21.3726152,8957.263758,-0.1801378784,-9.385894283,59.81268575
286.15,-157.5214606,21.37409721,8774.126666,-0.2024483465,-9.766063704,59.81667906
287.15,-157.5187848,21.37557974,8583.81323,-0.2243693547,-10.14054466,59.82019524
288.15,-157.5161076,21.37706285,8386.409299,-0.2459039353,-10.50853231,59.82323713
289.15,-157.513429,21.37854658,8182.017067,-0.2670580302,-10.86912976,59.82580609
290.15,-157.510749,21.38003098,7970.757134,-0.2878404035,-11.22134874,59.82790154
291.142,-157.5080899,21.3815037,7754.614657,-0.3080939873,-11.56126835,59.82951047
292.142,-157.505407,21.38298951,7530.120048,-0.3281727851,-11.8933887,59.83065438
293.142,-157.5027228,21.38447606,7299.251572,-0.3479212317,-12.21346464,59.83131102
294.142,-157.5000371,21.38596336,7062.227424,-0.3673588082,-12.52000856,59.83147041
295.142,-157.4973949,21.38742664,6823.393004,-0.3861883198,-12.80665537,59.83112873
296.142,-157.4946617,21.38894033,6570.74491,-0.4053878718,-13.08571497,59.8302398
297.142,-157.4920168,21.3904052,6321.158604,-0.4237403961,-13.33708516,59.82883951
298.142,-157.4892808,21.39192062,6058.074311,-0.4425279664,-13.57574859,59.82680959
299.15,-157.4865882,21.39341215,5794.709716,-0.4608485152,-13.78706132,59.82420474
300.15,-157.4838706,21.39491775,5526.816391,-0.482887339,-13.36635909,59.81566365
301.15,-157.4811637,21.39641788,5276.244879,-0.5229065381,-11.68654173,59.79452526
302.15,-157.4784398,21.39792839,5057.403474,-0.5675217506,-9.889435101,59.76968353
303.15,-157.4757031,21.39944725,4872.832905,-0.6119572915,-8.022754105,59.74143337
304.15,-157.4729577,21.40097234,4723.886597,-0.656699911,-6.111066764,59.70990812
305.15,-157.4702089,21.40250103,4611.363377,-0.7020882435,-4.172808593,59.6751974
306.15,-157.4675065,21.40400575,4536.61714,-0.7479913834,-2.242247688,59.63774019
307.142,-157.4647551,21.40553965,4492.384683,-0.7870238305,-1.255937041,59.60999628
308.142,-157.4619797,21.40708838,4463.615661,-0.8133690597,-0.9812795843,59.59071801
309.142,-157.4592274,21.40862525,4439.110484,-0.8330392445,-0.9290978878,59.57399592
310.142,-157.4564756,21.41016285,4415.382709,-0.8523990218,-0.934203615,59.5574867
311.142,-157.4537244,21.41170114,4391.356451,-0.8715996582,-0.9806023723,59.54102043
312.142,-157.4509737,21.41324014,4366.320855,-0.8906459928,-1.053932791,59.52442203
313.142,-157.4482234,21.41477989,4339.81499,-0.9095378855,-1.144339003,59.5075677
314.142,-157.4454735,21.41632044,4311.549799,-0.9282783661,-1.244985568,59.49036945
315.15,-157.442701,21.41787472,4281.095528,-0.9470265296,-1.351971716,59.47261548
316.15,-157.4399517,21.4194171,4248.869455,-0.9654776364,-1.460084329,59.45455264
317.15,-157.4372025,21.42096051,4214.602812,-0.9837921849,-1.567704445,59.43600133
318.15,-157.4344534,21.422505,4178.314087,-1.001974828,-1.672979342,59.41693481
319.15,-157.4317042,21.42405066,4140.054558,-1.020029963,-1.774491832,59.39733173
320.167,-157.4289551,21.42559754,4099.900757,-1.037961818,-1.871126414,59.37717435
321.15,-157.4262058,21.42714571,4057.949217,-1.055774596,-1.961986611,59.35644757
322.15,-157.4234564,21.42869521,4014.312588,-1.073472564,-2.046337382,59.33513807
323.167,-157.4207068,21.4302461,3969.117024,-1.091059999,-2.123555568,59.31323368
324.142,-157.41798,21.43178548,3922.893997,-1.108396087,-2.192572844,59.29091342
325.142,-157.4152301,21.43333926,3875.012723,-1.125776724,-2.254111224,59.26779194
326.142,-157.41248,21.43489454,3826.011138,-1.143060465,-2.307189666,59.24404472
327.142,-157.4097298,21.43645135,3776.051367,-1.160252054,-2.351504434,59.21966288
328.142,-157.4069795,21.4380097,3725.300952,-1.177356368,-2.386833348,59.19463864
329.142,-157.4042291,21.43956963,3673.931737,-1.194378201,-2.413005075,59.1689648
330.142,-157.4014786,21.44113113,3622.118585,-1.211322347,-2.429921648,59.14263523
331.142,-157.3987282,21.44269422,3570.038063,-1.228193503,-2.437553694,59.11564492
332.15,-157.395955,21.44427193,3517.43249,-1.245135954,-2.435886317,59.08775674
333.167,-157.393205,21.44583819,3465.348552,-1.261874031,-2.42505887,59.05942913
334.15,-157.3904552,21.44740602,3413.525216,-1.278552144,-2.405283359,59.03043342
335.15,-157.3877057,21.44897541,3362.13214,-1.295174059,-2.376813242,59.00077007
336.15,-157.3849568,21.45054633,3311.33389,-1.311743184,-2.33996721,58.97044103
337.15,-157.3822084,21.45211878,3261.288573,-1.32826257,-2.295137356,58.93945001
338.15,-157.3794607,21.45369271,3212.146356,-1.34473481,-2.242777306,58.90780234
339.15,-157.3767139,21.4552681,3164.048368,-1.36116206,-2.183401695,58.87550503
340.158,-157.3739909,21.45683178,3117.511323,-1.377409643,-2.118151375,58.84284378
341.142,-157.371246,21.45840999,3071.871952,-1.393751822,-2.046539916,58.80927972
342.142,-157.3685024,21.45998957,3027.633953,-1.410052618,-1.969746494,58.77509629
343.142,-157.3658058,21.46154411,2985.591633,-1.42604163,-1.889847878,58.74089118
344.142,-157.3630193,21.46315266,2943.727194,-1.442530636,-1.803393877,58.70492435
345.142,-157.36028,21.4647361,2904.206781,-1.458707042,-1.715277725,58.66896519
346.142,-157.3575425,21.46632076,2866.383761,-1.474840485,-1.624848091,58.63244502
347.142,-157.3548068,21.46790659,2830.2969,-1.49092959,-1.532839755,58.59538056
348.15,-157.3520546,21.46950428,2795.590732,-1.505889375,-1.503510372,58.55949989
349.15,-157.3493707,21.4710648,2760.500814,-1.513500706,-1.663315493,58.52841266
350.15,-157.3467376,21.47259769,2721.651834,-0.477119441,-1.942076127,58.5223902
351.15,-157.3441481,21.47410592,2678.662758,-0.2523350754,-1.784683705,58.51788476
352.15,-157.341596,21.47559266,2638.070022,-0.2299118917,-1.63128488,58.51883945
353.15,-157.339077,21.47706036,2599.587653,-0.2332086775,-1.461832262,58.51928356
354.15,-157.3365874,21.47851117,2563.304003,-0.2358172102,-1.252449631,58.51905791
355.15,-157.3341242,21.47994688,2529.603884,-0.2356316463,-1.025764813,58.51849394
356.142,-157.3317048,21.48135724,2498.849049,-0.2338720483,-0.7953726768,58.51792016
357.142,-157.3292866,21.48276709,2470.642613,-0.2315294243,-0.570948408,58.51747265
358.142,-157.3268895,21.48416488,2445.710917,-0.228978285,-0.3824394956,58.51721107
359.142,-157.3245132,21.48555071,2423.749674,-0.2267549135,-0.2217051116,58.51707997
360.142,-157.3221575,21.4869247,2404.309876,-0.2248418234,-0.07658029085,58.51702237
361.142,-157.3198222,21.48828696,2387.075994,-0.2231222863,0.05703164227,58.51701771
362.142,-157.3175071,21.48963765,2371.810413,-0.221542868,0.1804470541,58.51705746
363.142,-157.3152119,21.4909769,2358.309215,-0.2200858392,0.2944176564,58.51713553
364.142,-157.3129364,21.49230486,2346.388198,-0.2187403646,0.3996861611,58.51724602
365.15,-157.3106615,21.49363262,2335.797438,-0.2174871942,0.4976713605,58.51738598
366.15,-157.3084244,21.49493834,2324.100498,-3.186263726,-0.6738351018,58.46118795
367.15,-157.3062064,21.4962351,2297.631625,-13.10642232,-1.840985995,58.28386563
368.15,-157.3040098,21.4975288,2253.506659,-23.15641702,-3.097688885,57.96053461
369.15,-157.3018372,21.49882488,2190.412804,-30.74748906,-4.416863994,57.5681672
370.15,-157.2996897,21.50012666,2107.595126,-33.03854029,-5.676042475,57.08882093
371.15,-157.2975688,21.50143824,2006.631378,-35.08722111,-6.578517196,56.27087102
372.15,-157.2954781,21.50276808,1891.260063,-37.35752523,-7.460894245,55.3444435
373.158,-157.2934077,21.50414069,1765.792121,-39.97919123,-7.187824253,53.35274219
374.158,-157.2914038,21.50555131,1639.724978,-42.73869002,-7.803040833,51.95101582
375.158,-157.2894479,21.50700498,1507.175106,-45.50093429,-7.814515561,49.79263615
376.158,-157.2875612,21.50852619,1376.872198,-46.97064946,-6.728842876,46.34741367
377.158,-157.2857692,21.51013689,1259.082436,-42.06832909,-5.511119575,43.29954791
378.158,-157.2840722,21.51182766,1160.479672,-26.95226678,-3.260414121,41.04952335
379.158,-157.2824516,21.51357315,1093.724188,-14.82524063,-0.3403345941,39.77556848
380.158,-157.2808836,21.51534175,1067.713975,-4.923861717,2.90249712,39.43959676
381.15,-157.2793607,21.51708811,1086.299005,1.078894034,6.310068935,39.64774135
382.15,-157.2778481,21.5188183,1151.560149,2.570684208,9.97179049,39.96135657
383.15,-157.2763627,21.52050264,1264.701024,2.345635746,13.93496749,40.2337245
384.15,-157.2749159,21.52212981,1426.751832,0.4743668629,17.86762178,40.28303534
385.15,-157.2735186,21.52369826,1629.951992,-1.615925153,19.21253342,40.12829932
386.15,-157.2721669,21.52522187,1852.520813,-3.549081901,20.02514795,39.90500336
387.15,-157.2708557,21.52671065,2081.440317,-5.375255251,20.49860627,39.61381669
388.15,-157.2695825,21.52817022,2310.741694,-5.746993917,20.75740845,39.35751477
389.158,-157.2683346,21.52961457,2539.44707,-4.069197801,20.88959747,39.20473862
390.158,-157.2671285,21.53101941,2762.299985,-0.4609900928,21.09354489,39.23551337
391.158,-157.2659492,21.53239457,2980.676451,1.83797872,20.52864992,39.31912848
392.158,-157.26479,21.53374331,3189.379761,3.328490881,19.74071615,39.44962091
393.158,-157.2636471,21.53506796,3385.727428,2.922593106,19.05899107,39.56241731
394.158,-157.2625201,21.53636954,3569.937507,1.572420923,18.39277516,39.62579407
395.158,-157.2614094,21.53764955,3742.515119,1.830198101,17.75556905,39.71790242
396.158,-157.2603144,21.53890833,3904.057146,3.421710876,17.14696053,39.88666973
397.15,-157.2592423,21.54013508,4053.940868,5.128875112,16.56632765,40.12731384
398.15,-157.2581731,21.54134971,4195.241738,6.790510305,16.0012467,40.46248402
399.15,-157.2571139,21.54254103,4327.179637,8.427111975,15.45371131,40.88725951
400.15,-157.2560626,21.54370828,4450.230568,10.06772892,14.91931134,41.40536993
401.15,-157.2550173,21.54485065,4564.819581,11.72523715,14.39216437,42.02163796
402.15,-157.253976,21.54596728,4671.314927,13.41117309,13.86889813,42.74185361
403.15,-157.2529365,21.54705724,4770.02549,15.12968589,13.34455446,43.5717209
404.15,-157.251897,21.5481195,4861.197547,16.8818223,12.80869939,44.51524481
405.175,-157.2508468,21.54916149,4945.671794,18.68096261,12.24836125,45.58569883
406.158,-157.2498012,21.55016485,5022.153847,20.49526738,11.66399849,46.76850331
407.158,-157.2487673,21.55112116,5090.307239,22.30662696,11.0531873,48.05151654
408.158,-157.2476904,21.55207705,5153.368281,24.20472166,10.37501457,49.50520801
409.158,-157.2466215,21.55298336,5207.93626,26.0943075,9.648021161,51.0597275
410.158,-157.2455415,21.5538547,5254.906207,28.00538533,8.848839755,52.73541802
411.158,-157.2444487,21.55468964,5293.999491,29.93464958,7.97037076,54.53124392
412.158,-157.2433419,21.55548674,5324.876844,31.87798685,7.004920402,56.44453408
413.15,-157.2422292,21.55623831,5346.994578,33.81457475,5.954879652,58.4541916
414.15,-157.2410908,21.55695542,5360.280384,35.77185451,4.797009446,60.58925944
415.15,-157.2399351,21.55762994,5364.015707,37.72960769,3.536148159,62.82823209
416.15,-157.2387615,21.55826015,5357.668437,39.68654636,2.184713102,65.17748698
417.15,-157.2375693,21.55884413,5340.713212,41.63923742,0.7358134193,67.62749929
418.15,-157.2363585,21.55937989,5312.590196,43.5842496,-0.8177199471,70.16482445
419.15,-157.2351289,21.55986547,5272.696528,43.99044907,-2.356784863,72.67133212
420.15,-157.2338812,21.56030021,5220.942143,41.80457283,-3.687100532,75.02383677
421.158,-157.2326062,21.56068834,5157.593393,39.23796144,-4.86622432,77.259314
422.158,-157.2313257,21.56102525,5084.736722,36.70049383,-5.727941618,79.49488285
423.158,-157.2300299,21.56131357,5004.319551,31.0573067,-5.280158265,82.00434232
424.158,-157.2287192,21.56155462,4922.15507,13.08907706,-4.24363499,82.47730802
425.158,-157.2273977,21.56177136,4843.635943,-0.7754570742,-3.280972223,81.58727971
426.158,-157.22607,21.56198745,4770.683528,-6.628929326,-2.64561597,80.54627096
427.158,-157.2247396,21.56221403,4703.105851,-7.442278819,-2.07809692,79.78977621
428.158,-157.2234083,21.56245378,4640.581261,-10.04209089,-1.556779269,78.83975251
429.15,-157.2221003,21.56270598,4583.64119,-9.992254945,-1.036982525,78.05180695
430.15,-157.2207612,21.56298045,4529.862687,-3.314463595,-0.3690697756,78.0802546
431.15,-157.2194346,21.56325912,4481.550372,-2.440031713,0.2606345352,78.02730267
432.15,-157.2181099,21.56354152,4438.266289,-2.620465979,0.8777288183,77.8276509
433.15,-157.2167884,21.56382769,4399.933285,-2.793445083,1.49620116,77.61115832
434.15,-157.2154713,21.56411767,4366.478831,-2.93876221,2.116746431,77.38310691
435.15,-157.2141597,21.56441144,4337.828744,-3.065963706,2.739273479,77.1444436
436.15,-157.2128548,21.56470895,4313.902226,-3.183852518,3.364070411,76.89552252
437.15,-157.2115579,21.56501012,4294.610013,-3.297604053,3.99102103,76.6363368
438.158,-157.2102592,21.56531742,4279.751422,-3.411007783,4.638405613,76.36360292
439.158,-157.2089816,21.56562566,4269.519932,-3.524046997,5.309307306,76.08055305
440.158,-157.2077364,21.56593204,4263.84383,-3.636810809,5.993270385,75.78964478
441.158,-157.2064618,21.56625209,4262.566172,-3.755741222,6.72916769,75.47484717
442.158,-157.2052223,21.56656998,4265.87793,-3.87558466,7.484120144,75.15033439
443.158,-157.2039981,21.56689079,4273.729563,-3.998743013,8.272192445,74.81001924
444.158,-157.2027905,21.5672143,4286.117576,-4.125611706,9.092199182,74.45301708
445.158,-157.2016209,21.56753482,4302.681177,-4.254065014,9.925059922,74.08503106
446.15,-157.2004606,21.56786022,4323.700277,-4.387403463,10.79464899,73.69556861
447.15,-157.1992927,21.56819575,4349.633646,-4.528456974,11.7257782,73.27515571
448.15,-157.1981669,21.56852737,4379.349902,-4.671883689,12.68042194,72.83928729
449.15,-157.1970657,21.56886018,4413.073209,-4.820175419,13.67617303,72.37931728
450.15,-157.1959906,21.56919372,4450.596386,-4.974253057,14.70893571,71.89367579
451.167,-157.1949434,21.56952754,4491.642338,-5.134129621,15.7518648,71.38270884
452.15,-157.1939258,21.56986111,4535.79591,-5.298298583,16.78587327,70.84647953
453.15,-157.1929389,21.57019395,4582.353168,-5.434009208,16.64469539,70.39814965
454.158,-157.191971,21.57052907,4628.082899,-5.508778664,14.03609788,70.16525391
455.158,-157.1910293,21.57086184,4665.072835,-5.551439109,10.47195558,70.01356352
456.158,-157.1900986,21.57119579,4687.974754,-5.575559036,7.243284757,69.81964583
457.158,-157.189175,21.57153151,4694.408381,-5.584459951,4.070581886,69.61384297
458.158,-157.1882559,21.57186959,4683.408302,-5.588399556,0.8572948757,69.40801957
459.158,-157.1873543,21.57220498,4655.095583,-5.593160765,-2.313622411,69.20593231
460.158,-157.1864223,21.57255547,4607.286912,-5.602130253,-5.543649327,68.99498424
461.158,-157.1855037,21.57290465,4541.758541,-5.61648693,-8.608670546,68.78251958
462.15,-157.1845968,21.57325303,4459.482972,-5.631362128,-11.16960799,68.53687598
463.15,-157.1836763,21.57361071,4360.031401,-5.631883162,-11.68931244,68.0896117
464.167,-157.1827227,21.57398729,4247.057534,-5.667131366,-10.18233001,67.42763436
465.15,-157.1817728,21.57437107,4133.671908,-5.767469432,-8.805911168,66.77915618
466.15,-157.1808111,21.57476977,4022.94295,-5.88320514,-8.033784819,66.18183698
467.15,-157.1798389,21.57518358,3916.091079,-5.99320426,-7.337795695,65.5866601
468.15,-157.1788577,21.57561241,3813.533577,-6.102928748,-6.633351402,64.98603871
469.15,-157.177869,21.57605606,3715.543486,-6.214760439,-5.920361196,64.37946873
470.158,-157.1768658,21.57651815,3621.562855,-6.329258875,-5.195621354,63.76145207
471.158,-157.1758663,21.57699075,3533.289239,-6.443931677,-4.47418614,63.14191308
472.158,-157.1748638,21.57747728,3450.018542,-6.559535387,-3.756440619,62.51586578
473.158,-157.1738597,21.57797735,3371.797746,-6.676096513,-3.039244763,61.88232281
474.158,-157.1728555,21.57849054,3298.65031,-6.793720136,-2.320908998,61.24042776
475.158,-157.1718527,21.57901643,3230.58744,-6.912562909,-1.59683706,60.58893301
476.158,-157.1708527,21.57955455,3167.619537,-7.032885737,-0.8664070614,59.92700109
477.158,-157.1698571,21.58010438,3109.751432,-7.154904287,-0.1302441025,59.25389898
478.15,-157.1688755,21.58066067,3057.394081,-7.277781556,0.6060048404,58.57446897
479.15,-157.1678929,21.5812322,3009.646518,-7.403795744,1.355409658,57.87630773
480.15,-157.166919,21.58181373,2966.935285,-7.532132549,2.112535001,57.16401719
481.15,-157.1659553,21.58240461,2929.212789,-7.663013012,2.881777242,56.43598505
482.15,-157.1650033,21.58300416,2896.428457,-7.796715208,3.666894781,55.69057697
483.15,-157.1640644,21.58361163,2868.529952,-7.93347206,4.468854002,54.92642153
484.15,-157.1631555,21.58421596,2845.803051,-8.071367291,5.275779308,54.15512563
485.15,-157.1622321,21.58484721,2827.132055,-8.217721432,6.119700664,53.33679206
486.158,-157.1613342,21.58547887,2813.33453,-8.366680248,6.966447414,52.50263156
487.158,-157.1604627,21.58610987,2804.132807,-8.518114446,7.814017458,51.65187163
488.158,-157.1596116,21.58674445,2799.191044,-8.672488458,8.660556171,50.77758146
489.158,-157.1587822,21.58738157,2798.246406,-8.828379847,9.500288197,49.87914481
490.158,-157.1579758,21.58802016,2800.983727,-8.98172041,10.22478028,48.97240838
491.158,-157.1571927,21.5886595,2806.450491,-9.097293576,9.606011907,48.2539798
492.158,-157.1564297,21.58930002,2811.018775,-9.17859408,7.776785947,47.70694176
493.158,-157.1556821,21.58994288,2809.827834,-9.240473165,5.210955037,47.26243433
494.167,-157.1549454,21.59058926,2798.578544,-9.287988251,2.352188165,46.85664341
495.15,-157.1542225,21.59123476,2774.56488,-9.314907335,-0.3917413196,46.43719931
496.15,-157.153499,21.59189138,2736.130836,-9.327594091,-2.065998289,45.83642005
497.15,-157.1527805,21.59255572,2685.742272,-9.374314357,-2.338760054,45.00471532
498.15,-157.1520677,21.59323013,2627.996673,-9.468493451,-2.294087896,44.11430273
499.15,-157.1513616,21.59391612,2566.482554,-9.582244086,-1.882071681,43.1528066
500.15,-157.1506639,21.59461448,2504.136751,-9.704717224,-1.22629253,42.13863993
501.15,-157.1499761,21.59532529,2443.177677,-9.830851675,-0.5070188166,41.10125122
502.15,-157.1493113,21.59603593,2385.909963,-9.953841641,0.1660767945,40.07440162
503.158,-157.1486318,21.59678824,2329.67302,-10.07952659,0.7631320094,39.00862748
504.158,-157.1479832,21.59753271,2278.234994,-10.19985004,1.201271961,37.98064666
505.158,-157.1473495,21.59828679,2229.785037,-10.31842667,1.481735333,36.96713246
506.158,-157.1467311,21.59904982,2183.673959,-10.4358597,1.611162701,35.96717312
507.158,-157.146128,21.59982134,2139.145132,-10.5527583,1.611591374,34.97717019
508.158,-157.1455401,21.60060107,2095.451332,-10.66966846,1.514624811,33.99179196
509.158,-157.1449675,21.60138888,2051.939017,-10.78699495,1.354953517,33.00509337
510.158,-157.1444099,21.6021847,2008.094368,-11.74806627,1.134919442,31.88862947
511.15,-157.1438731,21.60298252,1963.815405,-17.47634718,0.7610343982,29.96589307
512.15,-157.1433564,21.60379946,1918.077422,-28.36328095,1.818340636,25.76694571
513.15,-157.1428853,21.60463448,1873.175743,-35.62431374,1.76743727,20.86819041
514.15,-157.1424767,21.60548772,1828.954707,-38.13970363,3.47185195,14.71271772
515.15,-157.142147,21.60635077,1787.999641,-39.80797933,5.34976308,8.283728343
516.15,-157.1419109,21.60720264,1753.004944,-39.87516538,9.547534615,0.1881251557
517.15,-157.1417751,21.60801429,1726.281753,-38.30620382,10.76494562,355.0825654
518.15,-157.1417212,21.60878086,1703.511278,-35.95848822,10.51931504,351.4447666
519.158,-157.1417303,21.60951325,1680.127476,-33.68744979,10.36210746,347.7888359
520.158,-157.1417899,21.6102009,1654.273811,-31.94104835,9.894490714,344.3115402
521.158,-157.1418908,21.61085091,1624.252781,-29.98182419,8.999798223,341.1325518
522.158,-157.1420257,21.61146499,1588.88558,-28.2529333,7.6740905,338.2657671
523.158,-157.1421885,21.61204543,1547.184372,-27.19237793,6.283694514,335.3380644
524.158,-157.1423746,21.61259223,1498.791223,-25.06381261,5.461859098,332.2877297
525.158,-157.1425791,21.61310444,1444.082145,-22.19006029,4.29894655,329.7791131
526.158,-157.1427961,21.61358077,1383.623788,-19.38321392,5.317699154,326.7779913
527.15,-157.1430194,21.6140186,1318.906793,-17.05246409,5.340568435,324.5804004
528.15,-157.1432501,21.61442925,1248.849879,-15.01856783,3.825062192,323.2716997
529.15,-157.1434848,21.61481386,1173.461597,-12.65865354,1.420413202,322.7083994
530.15,-157.143722,21.61517779,1092.244102,-8.516012748,-1.366959151,322.7853163
531.15,-157.1439601,21.61552671,1004.995912,-3.459117123,-4.301623009,323.1574991
532.15,-157.1441971,21.61586602,911.6711563,-1.303067292,-7.203291766,322.5591348
533.15,-157.1444338,21.61619895,812.0098723,-4.886141873,-9.873028941,320.0620449
534.15,-157.1446753,21.61652494,706.3078443,-12.66981976,-12.52945029,316.1064816
535.15,-157.1449287,21.61684021,594.7895679,-18.8231029,-15.05593412,312.3993241
536.158,-157.1452013,21.61714387,476.6198502,-18.76158766,-16.84177224,309.683786
537.158,-157.1454892,21.61743096,354.5501902,-12.56959234,-17.54884071,307.8974157
538.158,-157.1457925,21.61770784,229.1271515,-6.556147893,-17.53486337,306.2571095
539.158,-157.1461084,21.61797798,101.7984323,-7.69542518,-17.27995692,303.2878493
540.158,-157.1463778,21.61819233,-1.50694653,0.6525075132,2.642515571,294.7761647
541.158,-157.1463778,21.6181923,0.803510551,0.2406033704,1.647299035,294.7569754
542.158,-157.1463778,21.6181923,0.8388884917,0.2229614037,1.628507892,294.7563276
543.158,-157.1463778,21.61819229,0.8564527139,0.2289784829,1.826680556,294.7572789
544.15,-157.1463778,21.61819229,0.8583054543,0.2288392644,1.834857827,294.757308
545.15,-157.1463778,21.61819229,0.858264496,0.2290173396,1.835186267,294.7573151
546.15,-157.1463778,21.61819229,0.8582631759,0.2290181547,1.835197441,294.7573152
547.15,-157.1463778,21.61819231,0.847002359,0.2184662944,1.391135623,294.7552239
548.15,-157.1463778,21.61819232,0.8349586259,0.2185738112,1.286479272,294.7547978
549.15,-157.1463779,21.61819232,0.8370841705,0.2238791025,1.278932549,294.7547816
550.15,-157.1463779,21.61819233,0.8390562994,0.2283190751,1.269095577,294.7546605
551.15,-157.1463779,21.61819233,0.8401750865,0.2308183567,1.266168056,294.7544966
552.158,-157.1463779,21.61819234,0.8413659633,0.2329887024,1.267174395,294.7543421
553.158,-157.1463779,21.61819235,0.8431577846,0.235995956,1.262092117,294.7542164
554.158,-157.1463779,21.61819235,0.8448124368,0.238934716,1.257347957,294.7540825
555.158,-157.1463779,21.61819236,0.84640769,0.2409067489,1.253405206,294.7539567
556.158,-157.1463779,21.61819236,0.8479542544,0.2422774178,1.248734176,294.7538415
557.158,-157.146378,21.61819237,0.8493512009,0.2428316631,1.246047598,294.7537227
558.158,-157.146378,21.61819237,0.8507243561,0.2424794767,1.242267253,294.7535867
559.158,-157.146378,21.61819238,0.8519743251,0.2412176713,1.238945096,294.7534315
560.167,-157.146378,21.61819238,0.8530249322,0.2393782933,1.235443935,294.7532631
561.15,-157.146378,21.61819238,0.8540222391,0.2359888683,1.232850958,294.7530635
562.15,-157.146378,21.61819239,0.8548743907,0.2313867284,1.230660447,294.7528393
563.167,-157.146378,21.61819239,0.855568994,0.2254760791,1.228891372,294.7525891
564.15,-157.146378,21.6181924,0.8560936282,0.2181662853,1.227559792,294.7523113
565.15,-157.146378,21.6181924,0.8564362116,0.2093676244,1.226675451,294.7520046
566.15,-157.1463781,21.61819241,0.8565850253,0.1990123958,1.226240564,294.7516679
567.15,-157.1463781,21.61819241,0.8565315671,0.1870624876,1.226233867,294.7513007
568.158,-157.1463781,21.61819242,0.8538470077,0.166286688,1.267141735,294.7509071
569.158,-157.1463781,21.61819242,0.8535404459,0.1504934916,1.267112861,294.7504693
